{"59.938951 30.315635": {"MGRS": "36VUM5003447663", "currency": "RUB", "flag": "\ud83c\uddf7\ud83c\uddfa", "roadinfo": "right", "timezone_name": "Europe/Moscow", "timezone_shortname": "MSK", "continent": "Europe", "city": "Saint Petersburg", "country": "Russia", "confidence": 9, "lat": 59.9390432, "lng": 30.3158163}, "55.753215 37.622504": {"MGRS": "37UDB1329179347", "currency": "RUB", "flag": "\ud83c\uddf7\ud83c\uddfa", "roadinfo": "right", "timezone_name": "Europe/Moscow", "timezone_shortname": "MSK", "continent": "Europe", "city": "Moscow", "country": "Russia", "confidence": 9, "lat": 55.7520439, "lng": 37.6185003}, "56.838011 60.597465": {"MGRS": "41VLD5342701988", "currency": "RUB", "flag": "\ud83c\uddf7\ud83c\uddfa", "roadinfo": "right", "timezone_name": "Asia/Yekaterinburg", "timezone_shortname": "+05", "continent": "Europe", "city": "Yekaterinburg Municipality", "country": "Russia", "confidence": 10, "lat": 56.8385597, "lng": 60.5973125}, "55.796127 49.106405": {"MGRS": "39UUB8129685030", "currency": "RUB", "flag": "\ud83c\uddf7\ud83c\uddfa", "roadinfo": "right", "timezone_name": "Europe/Moscow", "timezone_shortname": "MSK", "continent": "Europe", "city": "Kazan", "country": "Russia", "confidence": 9, "lat": 55.7962933, "lng": 49.1065347}, "53.195873 50.100193": {"MGRS": "39UVU3989494365", "currency": "RUB", "flag": "\ud83c\uddf7\ud83c\uddfa", "roadinfo": "right", "timezone_name": "Europe/Samara", "timezone_shortname": "+04", "continent": "Europe", "city": "Samara", "country": "Russia", "confidence": 9, "lat": 53.1952203, "lng": 50.1003121}, "36.885843 30.701659": {"MGRS": "36STF9518584662", "currency": "TRY", "flag": "\ud83c\uddf9\ud83c\uddf7", "roadinfo": "right", "timezone_name": "Europe/Istanbul", "timezone_shortname": "+03", "continent": "Asia", "city": "Antalya", "country": "Turkey", "confidence": 9, "lat": 36.8857335, "lng": 30.7017072}, "43.585472 39.723089": {"MGRS": "37TEJ5839626062", "currency": "RUB", "flag": "\ud83c\uddf7\ud83c\uddfa", "roadinfo": "right", "timezone_name": "Europe/Moscow", "timezone_shortname": "MSK", "continent": "Europe", "city": "Sochi", "country": "Russia", "confidence": 9, "lat": 43.5852458, "lng": 39.7233443}, "4.214899 73.541641": {"MGRS": "43NCE3815865990", "currency": "MVR", "flag": "\ud83c\uddf2\ud83c\uddfb", "roadinfo": "left", "timezone_name": "Indian/Maldives", "timezone_shortname": "+05", "continent": "Asia", "city": "Mal\u00e9", "country": "Maldives", "confidence": 10, "lat": 4.2145203, "lng": 73.5418099}, "55.030199 82.92043": {"MGRS": "44UPF2275199827", "currency": "RUB", "flag": "\ud83c\uddf7\ud83c\uddfa", "roadinfo": "right", "timezone_name": "Asia/Novosibirsk", "timezone_shortname": "+07", "continent": "Asia", "city": "Novosibirsk", "country": "Russia", "confidence": 9, "lat": 55.0301075, "lng": 82.920499}, "54.735147 55.958727": {"MGRS": "40UDF3295565838", "currency": "RUB", "flag": "\ud83c\uddf7\ud83c\uddfa", "roadinfo": "right", "timezone_name": "Asia/Yekaterinburg", "timezone_shortname": "+05", "continent": "Europe", "city": "Ufa", "country": "Russia", "confidence": 9, "lat": 54.7353371, "lng": 55.9587389}, "45.03547 38.975313": {"MGRS": "37TDK9803286890", "currency": "RUB", "flag": "\ud83c\uddf7\ud83c\uddfa", "roadinfo": "right", "timezone_name": "Europe/Moscow", "timezone_shortname": "MSK", "continent": "Europe", "city": "Krasnodar", "country": "Russia", "confidence": 9, "lat": 45.0354665, "lng": 38.9750158}, "44.208799 43.13834": {"MGRS": "38TLP5126996747", "currency": "RUB", "flag": "\ud83c\uddf7\ud83c\uddfa", "roadinfo": "right", "timezone_name": "Europe/Moscow", "timezone_shortname": "MSK", "continent": "Europe", "city": "Mineralnye Vody", "country": "Russia", "confidence": 9, "lat": 44.2087851, "lng": 43.1383698}, "51.660781 39.200269": {"MGRS": "37UET1383223315", "currency": "RUB", "flag": "\ud83c\uddf7\ud83c\uddfa", "roadinfo": "right", "timezone_name": "Europe/Moscow", "timezone_shortname": "MSK", "continent": "Europe", "city": "Voronezh", "country": "Russia", "confidence": 9, "lat": 51.6606557, "lng": 39.1999813}, "47.222078 39.720349": {"MGRS": "37TEN5454330079", "currency": "RUB", "flag": "\ud83c\uddf7\ud83c\uddfa", "roadinfo": "right", "timezone_name": "Europe/Moscow", "timezone_shortname": "MSK", "continent": "Europe", "city": "Rostov-on-Don", "country": "Russia", "confidence": 9, "lat": 47.2219405, "lng": 39.720422}, "68.970663 33.074909": {"MGRS": "36WWB0296051189", "currency": "RUB", "flag": "\ud83c\uddf7\ud83c\uddfa", "roadinfo": "right", "timezone_name": "Europe/Moscow", "timezone_shortname": "MSK", "continent": "Europe", "city": "Murmansk", "country": "Russia", "confidence": 10, "lat": 68.9715312, "lng": 33.0739306}, "25.195137 55.278478": {"MGRS": "40RCN2655887658", "currency": "AED", "flag": "\ud83c\udde6\ud83c\uddea", "roadinfo": "right", "timezone_name": "Asia/Dubai", "timezone_shortname": "+04", "continent": "Asia", "city": "Dubai", "country": "United Arab Emirates", "confidence": 9, "lat": 25.1950808, "lng": 55.2786636}, "43.280476 40.265698": {"MGRS": "37TFH0276092701", "currency": "GEL", "flag": "\ud83c\uddec\ud83c\uddea", "roadinfo": "right", "timezone_name": "Europe/Moscow", "timezone_shortname": "MSK", "continent": "Asia", "city": "Gagra", "country": "Georgia", "confidence": 9, "lat": 43.280121, "lng": 40.2664979}, "52.094246 23.684559": {"MGRS": "34UFC8388874842", "currency": "BYN", "flag": "\ud83c\udde7\ud83c\uddfe", "roadinfo": "right", "timezone_name": "Europe/Minsk", "timezone_shortname": "+03", "continent": "Europe", "city": "Brest", "country": "Belarus", "confidence": 9, "lat": 52.09354, "lng": 23.6844595}, "58.01045 56.229434": {"MGRS": "40VDK5446630133", "currency": "RUB", "flag": "\ud83c\uddf7\ud83c\uddfa", "roadinfo": "right", "timezone_name": "Asia/Yekaterinburg", "timezone_shortname": "+05", "continent": "Europe", "city": "Perm District", "country": "Russia", "confidence": 9, "lat": 58.01045, "lng": 56.229434}, "43.31851 45.694271": {"MGRS": "38TNN5626796354", "currency": "RUB", "flag": "\ud83c\uddf7\ud83c\uddfa", "roadinfo": "right", "timezone_name": "Europe/Moscow", "timezone_shortname": "MSK", "continent": "Europe", "city": "Grozny", "country": "Russia", "confidence": 9, "lat": 43.3179224, "lng": 45.6939137}, "36.765645 28.806959": {"MGRS": "35SPA6129570393", "currency": "TRY", "flag": "\ud83c\uddf9\ud83c\uddf7", "roadinfo": "right", "timezone_name": "Europe/Istanbul", "timezone_shortname": "+03", "continent": "Asia", "city": "Dalaman", "country": "Turkey", "confidence": 9, "lat": 36.7656041, "lng": 28.8071747}, "56.326797 44.006516": {"MGRS": "38VMH3858642891", "currency": "RUB", "flag": "\ud83c\uddf7\ud83c\uddfa", "roadinfo": "right", "timezone_name": "Europe/Moscow", "timezone_shortname": "MSK", "continent": "Europe", "city": "Nizhny Novgorod", "country": "Russia", "confidence": 9, "lat": 56.3267684, "lng": 44.0068817}, "60.938545 76.558902": {"MGRS": "43VEH8445156986", "currency": "RUB", "flag": "\ud83c\uddf7\ud83c\uddfa", "roadinfo": "right", "timezone_name": "Asia/Yekaterinburg", "timezone_shortname": "+05", "continent": "Asia", "city": "Nizhnevartovsk", "country": "Russia", "confidence": 9, "lat": 60.9389047, "lng": 76.5585527}, "34.917644 33.631244": {"MGRS": "36SWD5759264087", "currency": "EUR", "flag": "\ud83c\udde8\ud83c\uddfe", "roadinfo": "left", "timezone_name": "Asia/Nicosia", "timezone_shortname": "EEST", "continent": "Asia", "city": "Larnaca Municipality", "country": "Cyprus", "confidence": 9, "lat": 34.9176084, "lng": 33.6305062}, "41.011218 28.978169": {"MGRS": "35TPF6636241868", "currency": "TRY", "flag": "\ud83c\uddf9\ud83c\uddf7", "roadinfo": "right", "timezone_name": "Europe/Istanbul", "timezone_shortname": "+03", "continent": "Europe", "city": "Fatih", "country": "Turkey", "confidence": 10, "lat": 41.0110444, "lng": 28.9783921}, "55.159897 61.402554": {"MGRS": "41ULB9822113756", "currency": "RUB", "flag": "\ud83c\uddf7\ud83c\uddfa", "roadinfo": "right", "timezone_name": "Asia/Yekaterinburg", "timezone_shortname": "+05", "continent": "Europe", "city": "Chelyabinsk", "country": "Russia", "confidence": 9, "lat": 55.1599626, "lng": 61.4024992}, "7.877035 98.396857": {"MGRS": "47NMJ3349370709", "currency": "THB", "flag": "\ud83c\uddf9\ud83c\udded", "roadinfo": "left", "timezone_name": "Asia/Bangkok", "timezone_shortname": "+07", "continent": "Asia", "city": "Phuket", "country": "Thailand", "confidence": 9, "lat": 7.8766543, "lng": 98.3966752}, "36.848571 27.077855": {"MGRS": "35SNA0696478124", "currency": "EUR", "flag": "\ud83c\uddec\ud83c\uddf7", "roadinfo": "right", "timezone_name": "Europe/Athens", "timezone_shortname": "EEST", "continent": "Europe", "city": "Municipality of Kos", "country": "Greece", "confidence": 9, "lat": 36.8489989, "lng": 27.0781208}, "43.968367 10.155059": {"MGRS": "32TNP9265569008", "currency": "EUR", "flag": "\ud83c\uddee\ud83c\uddf9", "roadinfo": "right", "timezone_name": "Europe/Rome", "timezone_shortname": "CEST", "continent": "Europe", "city": "Montignoso", "country": "Italy", "confidence": 8, "lat": 43.9683708, "lng": 10.1550621}, "37.699853 21.328835": {"MGRS": "34SEG2896072484", "currency": "EUR", "flag": "\ud83c\uddec\ud83c\uddf7", "roadinfo": "right", "timezone_name": "Europe/Athens", "timezone_shortname": "EEST", "continent": "Europe", "city": "Municipality of Pyrgos", "country": "Greece", "confidence": 9, "lat": 37.6991305, "lng": 21.3285134}, "38.544383 -0.132645": {"MGRS": "30SYH4988370131", "currency": "EUR", "flag": "\ud83c\uddea\ud83c\uddf8", "roadinfo": "right", "timezone_name": "Europe/Madrid", "timezone_shortname": "CEST", "continent": "Europe", "city": "Benidorm", "country": "Spain", "confidence": 9, "lat": 38.5445204, "lng": -0.1327938}, "39.61352 2.956787": {"MGRS": "31SDD9629984906", "currency": "EUR", "flag": "\ud83c\uddea\ud83c\uddf8", "roadinfo": "right", "timezone_name": "Europe/Madrid", "timezone_shortname": "CEST", "continent": "Europe", "city": "Lloret de Vistalegre", "country": "Spain", "confidence": 9, "lat": 39.6138988, "lng": 2.9568914}, "31.955397 35.895673": {"MGRS": "36RYA7367139106", "currency": "JOD", "flag": "\ud83c\uddef\ud83c\uddf4", "roadinfo": "right", "timezone_name": "Asia/Amman", "timezone_shortname": "EEST", "continent": "Asia", "city": "Amman", "country": "Jordan", "confidence": 10, "lat": 31.9549752, "lng": 35.8954044}, "59.912752 10.734365": {"MGRS": "32VNM9698842959", "currency": "NOK", "flag": "\ud83c\uddf3\ud83c\uddf4", "roadinfo": "right", "timezone_name": "Europe/Oslo", "timezone_shortname": "CEST", "continent": "Europe", "city": "Oslo", "country": "Norway", "confidence": 9, "lat": 59.9127067, "lng": 10.7344125}, "41.392696 2.144449": {"MGRS": "31TDF2850082678", "currency": "EUR", "flag": "\ud83c\uddea\ud83c\uddf8", "roadinfo": "right", "timezone_name": "Europe/Madrid", "timezone_shortname": "CEST", "continent": "Europe", "city": "Barcelona", "country": "Spain", "confidence": 10, "lat": 41.3924593, "lng": 2.1447583}, "45.469436 9.180621": {"MGRS": "32TNR1414435091", "currency": "EUR", "flag": "\ud83c\uddee\ud83c\uddf9", "roadinfo": "right", "timezone_name": "Europe/Rome", "timezone_shortname": "CEST", "continent": "Europe", "city": "Milan", "country": "Italy", "confidence": 9, "lat": 45.469211, "lng": 9.1809455}, "25.115861 55.136346": {"MGRS": "40RCN1210179086", "currency": "AED", "flag": "\ud83c\udde6\ud83c\uddea", "roadinfo": "right", "timezone_name": "Asia/Dubai", "timezone_shortname": "+04", "continent": "Asia", "city": "Dubai", "country": "United Arab Emirates", "confidence": 9, "lat": 25.1159714, "lng": 55.1364112}, "35.337664 25.122636": {"MGRS": "35SLV2939112107", "currency": "EUR", "flag": "\ud83c\uddec\ud83c\uddf7", "roadinfo": "right", "timezone_name": "Europe/Athens", "timezone_shortname": "EEST", "continent": "Europe", "city": "Heraklion", "country": "Greece", "confidence": 9, "lat": 35.3376704, "lng": 25.1227162}, "56.010563 92.852572": {"MGRS": "46VDH9079507391", "currency": "RUB", "flag": "\ud83c\uddf7\ud83c\uddfa", "roadinfo": "right", "timezone_name": "Asia/Krasnoyarsk", "timezone_shortname": "+07", "continent": "Asia", "city": "Krasnoyarsk", "country": "Russia", "confidence": 9, "lat": 56.0117013, "lng": 92.8523755}, "42.433223 18.697642": {"MGRS": "34TCN1061900454", "currency": "EUR", "flag": "\ud83c\uddf2\ud83c\uddea", "roadinfo": "right", "timezone_name": "Europe/Belgrade", "timezone_shortname": "CEST", "continent": "Europe", "city": "Tivat", "country": "Montenegro", "confidence": 9, "lat": 42.4332942, "lng": 18.6976497}, "41.902689 12.496176": {"MGRS": "33TTG9232242006", "currency": "EUR", "flag": "\ud83c\uddee\ud83c\uddf9", "roadinfo": "right", "timezone_name": "Europe/Rome", "timezone_shortname": "CEST", "continent": "Europe", "city": "Rome", "country": "Italy", "confidence": 9, "lat": 41.9027127, "lng": 12.4962466}, "50.595414 36.587268": {"MGRS": "37UCS2925707679", "currency": "RUB", "flag": "\ud83c\uddf7\ud83c\uddfa", "roadinfo": "right", "timezone_name": "Europe/Moscow", "timezone_shortname": "MSK", "continent": "Europe", "city": "Belgorod", "country": "Russia", "confidence": 9, "lat": 50.5960131, "lng": 36.5874704}, "55.63407 51.809112": {"MGRS": "39UWB5093265665", "currency": "RUB", "flag": "\ud83c\uddf7\ud83c\uddfa", "roadinfo": "right", "timezone_name": "Europe/Moscow", "timezone_shortname": "MSK", "continent": "Europe", "city": "Nizhnekamsk", "country": "Russia", "confidence": 9, "lat": 55.6342015, "lng": 51.809027}, "12.248216 109.188058": {"MGRS": "49PCP0288454653", "currency": "VND", "flag": "\ud83c\uddfb\ud83c\uddf3", "roadinfo": "right", "timezone_name": "Asia/Ho_Chi_Minh", "timezone_shortname": "+07", "continent": "Asia", "city": "Nha Trang", "country": "Vietnam", "confidence": 9, "lat": 12.2481368, "lng": 109.1878604}, "44.86901 13.849686": {"MGRS": "33TVK0913069064", "currency": "HRK", "flag": "\ud83c\udded\ud83c\uddf7", "roadinfo": "right", "timezone_name": "Europe/Belgrade", "timezone_shortname": "CEST", "continent": "Europe", "city": "Grad Pula", "country": "Croatia", "confidence": 10, "lat": 44.8692027, "lng": 13.8496664}, "44.894965 37.31617": {"MGRS": "37TCK6705372661", "currency": "RUB", "flag": "\ud83c\uddf7\ud83c\uddfa", "roadinfo": "right", "timezone_name": "Europe/Moscow", "timezone_shortname": "MSK", "continent": "Europe", "city": "Anapa", "country": "Russia", "confidence": 9, "lat": 44.8949662, "lng": 37.316261}, "42.650657 18.091082": {"MGRS": "34TBN6154126115", "currency": "HRK", "flag": "\ud83c\udded\ud83c\uddf7", "roadinfo": "right", "timezone_name": "Europe/Belgrade", "timezone_shortname": "CEST", "continent": "Europe", "city": "Grad Dubrovnik", "country": "Croatia", "confidence": 9, "lat": 42.6505666, "lng": 18.0909692}, "45.360076 11.795203": {"MGRS": "32TQR1891826752", "currency": "EUR", "flag": "\ud83c\uddee\ud83c\uddf9", "roadinfo": "right", "timezone_name": "Europe/Rome", "timezone_shortname": "CEST", "continent": "Europe", "city": "Abano Terme", "country": "Italy", "confidence": 9, "lat": 45.3600766, "lng": 11.7951958}, "48.480223 135.071917": {"MGRS": "53UNP0535069591", "currency": "RUB", "flag": "\ud83c\uddf7\ud83c\uddfa", "roadinfo": "right", "timezone_name": "Asia/Vladivostok", "timezone_shortname": "+10", "continent": "Asia", "city": "Khabarovsk", "country": "Russia", "confidence": 9, "lat": 48.4794327, "lng": 135.072403}, "42.498257 27.470517": {"MGRS": "35TNH3865405293", "currency": "BGN", "flag": "\ud83c\udde7\ud83c\uddec", "roadinfo": "right", "timezone_name": "Europe/Sofia", "timezone_shortname": "EEST", "continent": "Europe", "city": "Burgas", "country": "Bulgaria", "confidence": 10, "lat": 42.4990349, "lng": 27.4704381}, "57.152985 65.541227": {"MGRS": "41VPD5376137323", "currency": "RUB", "flag": "\ud83c\uddf7\ud83c\uddfa", "roadinfo": "right", "timezone_name": "Asia/Yekaterinburg", "timezone_shortname": "+05", "continent": "Asia", "city": "Tyumen", "country": "Russia", "confidence": 9, "lat": 57.1533584, "lng": 65.5419468}, "37.034527 27.430012": {"MGRS": "35SNA3824598795", "currency": "TRY", "flag": "\ud83c\uddf9\ud83c\uddf7", "roadinfo": "right", "timezone_name": "Europe/Istanbul", "timezone_shortname": "+03", "continent": "Asia", "city": "Bodrum", "country": "Turkey", "confidence": 9, "lat": 37.0345866, "lng": 27.4300344}, "49.088054 27.68517": {"MGRS": "35UNQ5003037459", "currency": "UAH", "flag": "\ud83c\uddfa\ud83c\udde6", "roadinfo": "right", "timezone_name": "Europe/Kiev", "timezone_shortname": "EEST", "continent": "Europe", "city": "Bar", "country": "Ukraine", "confidence": 9, "lat": 49.0879531, "lng": 27.6852277}, "52.373057 4.892557": {"MGRS": "31UFU2883204238", "currency": "EUR", "flag": "\ud83c\uddf3\ud83c\uddf1", "roadinfo": "right", "timezone_name": "Europe/Amsterdam", "timezone_shortname": "CEST", "continent": "Europe", "city": "Amsterdam", "country": "Netherlands", "confidence": 9, "lat": 52.3732432, "lng": 4.8925148}, "43.115536 131.885485": {"MGRS": "52TGN3477377652", "currency": "RUB", "flag": "\ud83c\uddf7\ud83c\uddfa", "roadinfo": "right", "timezone_name": "Asia/Vladivostok", "timezone_shortname": "+10", "continent": "Asia", "city": "Vladivostok", "country": "Russia", "confidence": 9, "lat": 43.1152234, "lng": 131.8856831}, "28.459997 -16.249661": {"MGRS": "28RCS7764948796", "currency": "EUR", "flag": "\ud83c\uddea\ud83c\uddf8", "roadinfo": "right", "timezone_name": "Atlantic/Canary", "timezone_shortname": "WEST", "continent": "Europe", "city": "Santa Cruz de Tenerife", "country": "Spain", "confidence": 9, "lat": 28.4600036, "lng": -16.2496725}, "54.710157 20.510137": {"MGRS": "34UDF6839962665", "currency": "RUB", "flag": "\ud83c\uddf7\ud83c\uddfa", "roadinfo": "right", "timezone_name": "Europe/Kaliningrad", "timezone_shortname": "EET", "continent": "Europe", "city": "Kaliningrad", "country": "Russia", "confidence": 9, "lat": 54.710304, "lng": 20.5095216}, "63.621324 33.232608": {"MGRS": "36VWR1554429724", "currency": "RUB", "flag": "\ud83c\uddf7\ud83c\uddfa", "roadinfo": "right", "timezone_name": "Europe/Moscow", "timezone_shortname": "MSK", "continent": "Europe", "city": "Medvezhyegorsky District", "country": "Russia", "confidence": 1, "lat": 63.3957807, "lng": 33.3110956}, "52.929298 87.983137": {"MGRS": "45UWU6608064815", "currency": "RUB", "flag": "\ud83c\uddf7\ud83c\uddfa", "roadinfo": "right", "timezone_name": "Asia/Novokuznetsk", "timezone_shortname": "+07", "continent": "Asia", "city": "Sheregesh", "country": "Russia", "confidence": 9, "lat": 52.9289152, "lng": 87.9830566}, "44.044526 42.85891": {"MGRS": "38TLP2846079050", "currency": "RUB", "flag": "\ud83c\uddf7\ud83c\uddfa", "roadinfo": "right", "timezone_name": "Europe/Moscow", "timezone_shortname": "MSK", "continent": "Europe", "city": "Yessentuki", "country": "Russia", "confidence": 9, "lat": 44.0445565, "lng": 42.8588268}, "53.407158 58.980282": {"MGRS": "40UFE3162219375", "currency": "RUB", "flag": "\ud83c\uddf7\ud83c\uddfa", "roadinfo": "right", "timezone_name": "Asia/Yekaterinburg", "timezone_shortname": "+05", "continent": "Europe", "city": "Magnitogorsk", "country": "Russia", "confidence": 9, "lat": 53.4070112, "lng": 58.9800702}, "4.174972 73.509688": {"MGRS": "43NCE3459561622", "currency": "MVR", "flag": "\ud83c\uddf2\ud83c\uddfb", "roadinfo": "left", "timezone_name": "Indian/Maldives", "timezone_shortname": "+05", "continent": "Asia", "city": "Mal\u00e9", "country": "Maldives", "confidence": 9, "lat": 4.1749536, "lng": 73.5097938}, "48.206481 16.363451": {"MGRS": "33UXP0128140173", "currency": "EUR", "flag": "\ud83c\udde6\ud83c\uddf9", "roadinfo": "right", "timezone_name": "Europe/Vienna", "timezone_shortname": "CEST", "continent": "Europe", "city": "Vienna", "country": "Austria", "confidence": 9, "lat": 48.2067071, "lng": 16.3632058}, "13.77137 100.513782": {"MGRS": "47PPR6357422991", "currency": "THB", "flag": "\ud83c\uddf9\ud83c\udded", "roadinfo": "left", "timezone_name": "Asia/Bangkok", "timezone_shortname": "+07", "continent": "Asia", "city": "Dusit Subdistrict", "country": "Thailand", "confidence": 9, "lat": 13.7716918, "lng": 100.5130682}, "43.512724 16.442377": {"MGRS": "33TXJ1657618783", "currency": "HRK", "flag": "\ud83c\udded\ud83c\uddf7", "roadinfo": "right", "timezone_name": "Europe/Belgrade", "timezone_shortname": "CEST", "continent": "Europe", "city": "Split", "country": "Croatia", "confidence": 10, "lat": 43.5128941, "lng": 16.4422922}, "50.080293 14.428983": {"MGRS": "33UVR5915747750", "currency": "CZK", "flag": "\ud83c\udde8\ud83c\uddff", "roadinfo": "right", "timezone_name": "Europe/Prague", "timezone_shortname": "CEST", "continent": "Europe", "city": "Prague", "country": "Czechia", "confidence": 10, "lat": 50.0806222, "lng": 14.429151}, "56.970177 23.775145": {"MGRS": "34VFJ6873817431", "currency": "EUR", "flag": "\ud83c\uddf1\ud83c\uddfb", "roadinfo": "right", "timezone_name": "Europe/Riga", "timezone_shortname": "EEST", "continent": "Europe", "city": "J\u016brmala", "country": "Latvia", "confidence": 9, "lat": 56.969616, "lng": 23.7758692}, "6.937505 79.856869": {"MGRS": "44NLN7370966936", "currency": "LKR", "flag": "\ud83c\uddf1\ud83c\uddf0", "roadinfo": "left", "timezone_name": "Asia/Colombo", "timezone_shortname": "+0530", "continent": "Asia", "city": "Colombo", "country": "Sri Lanka", "confidence": 9, "lat": 6.9370014, "lng": 79.8568181}, "39.901843 116.391433": {"MGRS": "50SMK4797917137", "currency": "CNY", "flag": "\ud83c\udde8\ud83c\uddf3", "roadinfo": "right", "timezone_name": "Asia/Shanghai", "timezone_shortname": "CST", "continent": "Asia", "city": "Beijing", "country": "China", "confidence": 9, "lat": 39.9027217, "lng": 116.3914409}, "25.156062 55.214176": {"MGRS": "40RCN1999683412", "currency": "AED", "flag": "\ud83c\udde6\ud83c\uddea", "roadinfo": "right", "timezone_name": "Asia/Dubai", "timezone_shortname": "+04", "continent": "Asia", "city": "Dubai", "country": "United Arab Emirates", "confidence": 9, "lat": 25.1559792, "lng": 55.2141202}, "47.167686 11.859037": {"MGRS": "32TQT1667227765", "currency": "EUR", "flag": "\ud83c\udde6\ud83c\uddf9", "roadinfo": "right", "timezone_name": "Europe/Vienna", "timezone_shortname": "CEST", "continent": "Europe", "city": "Marktgemeinde Mayrhofen", "country": "Austria", "confidence": 9, "lat": 47.1676911, "lng": 11.8590356}, "48.856663 2.351556": {"MGRS": "31UDQ5245311710", "currency": "EUR", "flag": "\ud83c\uddeb\ud83c\uddf7", "roadinfo": "right", "timezone_name": "Europe/Paris", "timezone_shortname": "CEST", "continent": "Europe", "city": "Paris", "country": "France", "confidence": 9, "lat": 48.8565387, "lng": 2.3518054}, "20.276397 -102.548385": {"MGRS": "13QGC5607043964", "currency": "MXN", "flag": "\ud83c\uddf2\ud83c\uddfd", "roadinfo": "right", "timezone_name": "America/Mexico_City", "timezone_shortname": "CST", "continent": "North America", "city": "La Barca", "country": "Mexico", "confidence": 9, "lat": 20.2763712, "lng": -102.5482976}, "41.263375 13.7447": {"MGRS": "33TUF9486568738", "currency": "EUR", "flag": "\ud83c\uddee\ud83c\uddf9", "roadinfo": "right", "timezone_name": "Europe/Rome", "timezone_shortname": "CEST", "continent": "Europe", "city": "Minturno", "country": "Italy", "confidence": 9, "lat": 41.2632324, "lng": 13.7449171}, "47.272898 12.759751": {"MGRS": "33TUN3057537893", "currency": "EUR", "flag": "\ud83c\udde6\ud83c\uddf9", "roadinfo": "right", "timezone_name": "Europe/Vienna", "timezone_shortname": "CEST", "continent": "Europe", "city": "Kaprun", "country": "Austria", "confidence": 9, "lat": 47.2726196, "lng": 12.7600101}, "60.761156 46.29784": {"MGRS": "38VNN7067836917", "currency": "RUB", "flag": "\ud83c\uddf7\ud83c\uddfa", "roadinfo": "right", "timezone_name": "Europe/Moscow", "timezone_shortname": "MSK", "continent": "Europe", "city": "Velikiy Ustyug", "country": "Russia", "confidence": 10, "lat": 60.7614691, "lng": 46.2971246}, "44.561006 38.077115": {"MGRS": "37TDK2673834595", "currency": "RUB", "flag": "\ud83c\uddf7\ud83c\uddfa", "roadinfo": "right", "timezone_name": "Europe/Moscow", "timezone_shortname": "MSK", "continent": "Europe", "city": "Gelendzhik", "country": "Russia", "confidence": 9, "lat": 44.5609746, "lng": 38.077482}, "57.767961 40.926858": {"MGRS": "37VFE1462004514", "currency": "RUB", "flag": "\ud83c\uddf7\ud83c\uddfa", "roadinfo": "right", "timezone_name": "Europe/Moscow", "timezone_shortname": "MSK", "continent": "Europe", "city": "Kostroma", "country": "Russia", "confidence": 9, "lat": 57.7680234, "lng": 40.9268484}, "18.567254 -68.361515": {"MGRS": "19QEA6682953340", "currency": "DOP", "flag": "\ud83c\udde9\ud83c\uddf4", "roadinfo": "right", "timezone_name": "America/Santo_Domingo", "timezone_shortname": "AST", "continent": "North America", "city": "Hig\u00fcey", "country": "Dominican Republic", "confidence": 7, "lat": 18.5697508, "lng": -68.3666642}, "61.254035 73.396221": {"MGRS": "43VDH1396592137", "currency": "RUB", "flag": "\ud83c\uddf7\ud83c\uddfa", "roadinfo": "right", "timezone_name": "Asia/Yekaterinburg", "timezone_shortname": "+05", "continent": "Asia", "city": "Surgut", "country": "Russia", "confidence": 9, "lat": 61.2540207, "lng": 73.3963548}, "38.028775 23.757583": {"MGRS": "34SGH4190012463", "currency": "EUR", "flag": "\ud83c\uddec\ud83c\uddf7", "roadinfo": "right", "timezone_name": "Europe/Athens", "timezone_shortname": "EEST", "continent": "Europe", "city": "Regional Unit of Central Athens", "country": "Greece", "confidence": 9, "lat": 38.0276037, "lng": 23.7559948}, "48.137187 11.575691": {"MGRS": "32UPU9149734782", "currency": "EUR", "flag": "\ud83c\udde9\ud83c\uddea", "roadinfo": "right", "timezone_name": "Europe/Berlin", "timezone_shortname": "CEST", "continent": "Europe", "city": "Munich", "country": "Germany", "confidence": 9, "lat": 48.1374576, "lng": 11.5740835}, "-8.369326 115.166023": {"MGRS": "50LKR9788774245", "currency": "IDR", "flag": "\ud83c\uddee\ud83c\udde9", "roadinfo": "left", "timezone_name": "Asia/Makassar", "timezone_shortname": "WITA", "continent": "Asia", "city": "Apuan", "country": "Indonesia", "confidence": 8, "lat": -8.3707318, "lng": 115.1645437}, "40.012729 23.450413": {"MGRS": "34TGK0891431974", "currency": "EUR", "flag": "\ud83c\uddec\ud83c\uddf7", "roadinfo": "right", "timezone_name": "Europe/Athens", "timezone_shortname": "EEST", "continent": "Europe", "city": "Kassandrino", "country": "Greece", "confidence": 9, "lat": 40.0121344, "lng": 23.4477614}, "-20.324815 57.566262": {"MGRS": "40KEC5440653568", "currency": "MUR", "flag": "\ud83c\uddf2\ud83c\uddfa", "roadinfo": "left", "timezone_name": "Indian/Mauritius", "timezone_shortname": "+04", "continent": "Africa", "city": "Curepipe", "country": "Mauritius", "confidence": 7, "lat": -20.3150516, "lng": 57.5211497}, "45.760199 4.837715": {"MGRS": "31TFL4289969069", "currency": "EUR", "flag": "\ud83c\uddeb\ud83c\uddf7", "roadinfo": "right", "timezone_name": "Europe/Paris", "timezone_shortname": "CEST", "continent": "Europe", "city": "Lyon 2e Arrondissement", "country": "France", "confidence": 10, "lat": 45.760409, "lng": 4.837568}, "50.930779 6.938399": {"MGRS": "32ULB5511844139", "currency": "EUR", "flag": "\ud83c\udde9\ud83c\uddea", "roadinfo": "right", "timezone_name": "Europe/Berlin", "timezone_shortname": "CEST", "continent": "Europe", "city": "Cologne", "country": "Germany", "confidence": 10, "lat": 50.9306724, "lng": 6.9382534}, "51.507351 -0.12766": {"MGRS": "30UXC9932610154", "currency": "GBP", "flag": "\ud83c\uddec\ud83c\udde7", "roadinfo": "left", "timezone_name": "Europe/London", "timezone_shortname": "BST", "continent": "Europe", "city": "London", "country": "United Kingdom", "confidence": 9, "lat": 51.5073171, "lng": -0.1276554}, "51.585547 0.608079": {"MGRS": "31UCT3427017651", "currency": "GBP", "flag": "\ud83c\uddec\ud83c\udde7", "roadinfo": "left", "timezone_name": "Europe/London", "timezone_shortname": "BST", "continent": "Europe", "city": "Rayleigh", "country": "United Kingdom", "confidence": 9, "lat": 51.5855176, "lng": 0.607761}, "66.496542 25.724058": {"MGRS": "35WMP4330275817", "currency": "EUR", "flag": "\ud83c\uddeb\ud83c\uddee", "roadinfo": "right", "timezone_name": "Europe/Helsinki", "timezone_shortname": "EEST", "continent": "Europe", "city": "Rovaniemi", "country": "Finland", "confidence": 9, "lat": 66.4963795, "lng": 25.7259084}, "-4.677199 55.467241": {"MGRS": "40MCV2957683325", "currency": "SCR", "flag": "\ud83c\uddf8\ud83c\udde8", "roadinfo": "left", "timezone_name": "Indian/Mahe", "timezone_shortname": "+04", "continent": "Africa", "city": "La Mis\u00e8re", "country": "Seychelles", "confidence": 7, "lat": -4.6727292, "lng": 55.4635584}, "46.965575 11.007408": {"MGRS": "32TPT5269103281", "currency": "EUR", "flag": "\ud83c\udde6\ud83c\uddf9", "roadinfo": "right", "timezone_name": "Europe/Vienna", "timezone_shortname": "CEST", "continent": "Europe", "city": "Gemeinde S\u00f6lden", "country": "Austria", "confidence": 10, "lat": 46.9654635, "lng": 11.0071628}, "67.303902 25.262467": {"MGRS": "35WMQ2508464703", "currency": "EUR", "flag": "\ud83c\uddeb\ud83c\uddee", "roadinfo": "right", "timezone_name": "Europe/Helsinki", "timezone_shortname": "EEST", "continent": "Europe", "city": "Kittil\u00e4", "country": "Finland", "confidence": 7, "lat": 67.2895154, "lng": 25.260951}, "-8.800658 115.230459": {"MGRS": "50LLR0535726810", "currency": "IDR", "flag": "\ud83c\uddee\ud83c\udde9", "roadinfo": "left", "timezone_name": "Asia/Makassar", "timezone_shortname": "WITA", "continent": "Asia", "city": "Nusa Dua", "country": "Indonesia", "confidence": 9, "lat": -8.7999007, "lng": 115.2303671}, "43.70532 7.264846": {"MGRS": "32TLP6017440610", "currency": "EUR", "flag": "\ud83c\uddeb\ud83c\uddf7", "roadinfo": "right", "timezone_name": "Europe/Paris", "timezone_shortname": "CEST", "continent": "Europe", "city": "Nice", "country": "France", "confidence": 10, "lat": 43.705347, "lng": 7.264549}, "40.419348 -3.700897": {"MGRS": "30TVK4053974550", "currency": "EUR", "flag": "\ud83c\uddea\ud83c\uddf8", "roadinfo": "right", "timezone_name": "Europe/Madrid", "timezone_shortname": "CEST", "continent": "Europe", "city": "Madrid", "country": "Spain", "confidence": 9, "lat": 40.4194589, "lng": -3.700891}, "53.243556 34.363425": {"MGRS": "36UWE9099600227", "currency": "RUB", "flag": "\ud83c\uddf7\ud83c\uddfa", "roadinfo": "right", "timezone_name": "Europe/Moscow", "timezone_shortname": "MSK", "continent": "Europe", "city": "Bryansk", "country": "Russia", "confidence": 9, "lat": 53.2435099, "lng": 34.3636383}, "23.12429 -82.385824": {"MGRS": "17QLF5809057992", "currency": "CUC", "flag": "\ud83c\udde8\ud83c\uddfa", "roadinfo": "right", "timezone_name": "America/Havana", "timezone_shortname": "CDT", "continent": "North America", "city": "Havana", "country": "Cuba", "confidence": 9, "lat": 23.1246523, "lng": -82.3859176}, "37.729547 20.868134": {"MGRS": "34SDG8841875892", "currency": "EUR", "flag": "\ud83c\uddec\ud83c\uddf7", "roadinfo": "right", "timezone_name": "Europe/Athens", "timezone_shortname": "EEST", "continent": "Europe", "city": "Laganas", "country": "Greece", "confidence": 9, "lat": 37.7302363, "lng": 20.8685688}, "44.273765 9.396378": {"MGRS": "32TNQ3164002319", "currency": "EUR", "flag": "\ud83c\uddee\ud83c\uddf9", "roadinfo": "right", "timezone_name": "Europe/Rome", "timezone_shortname": "CEST", "continent": "Europe", "city": "Sestri Levante", "country": "Italy", "confidence": 9, "lat": 44.2734316, "lng": 9.3964671}, "64.539911 40.515753": {"MGRS": "37WEM7270458057", "currency": "RUB", "flag": "\ud83c\uddf7\ud83c\uddfa", "roadinfo": "right", "timezone_name": "Europe/Moscow", "timezone_shortname": "MSK", "continent": "Europe", "city": "Arkhangelsk", "country": "Russia", "confidence": 9, "lat": 64.5399876, "lng": 40.5158569}, "40.738648 13.940003": {"MGRS": "33TVF1050210285", "currency": "EUR", "flag": "\ud83c\uddee\ud83c\uddf9", "roadinfo": "right", "timezone_name": "Europe/Rome", "timezone_shortname": "CEST", "continent": "Europe", "city": "Ischia", "country": "Italy", "confidence": 9, "lat": 40.7386491, "lng": 13.9400228}, "37.883148 15.308864": {"MGRS": "33SWB2715992897", "currency": "EUR", "flag": "\ud83c\uddee\ud83c\uddf9", "roadinfo": "right", "timezone_name": "Europe/Rome", "timezone_shortname": "CEST", "continent": "Europe", "city": "Letojanni", "country": "Italy", "confidence": 9, "lat": 37.8831692, "lng": 15.3088491}, "59.325 18.070897": {"MGRS": "34VCL3333979903", "currency": "SEK", "flag": "\ud83c\uddf8\ud83c\uddea", "roadinfo": "right", "timezone_name": "Europe/Stockholm", "timezone_shortname": "CEST", "continent": "Europe", "city": "Stockholm", "country": "Sweden", "confidence": 9, "lat": 59.3249721, "lng": 18.0708916}, "40.633825 14.602977": {"MGRS": "33TVE6642598185", "currency": "EUR", "flag": "\ud83c\uddee\ud83c\uddf9", "roadinfo": "right", "timezone_name": "Europe/Rome", "timezone_shortname": "CEST", "continent": "Europe", "city": "Pogerola", "country": "Italy", "confidence": 9, "lat": 40.6338274, "lng": 14.6029762}, "31.777493 35.205165": {"MGRS": "36RYA0883617777", "currency": "ILS", "flag": "\ud83c\uddee\ud83c\uddf1", "roadinfo": "right", "timezone_name": "Asia/Jerusalem", "timezone_shortname": "IDT", "continent": "Asia", "city": "Jerusalem", "country": "Israel", "confidence": 9, "lat": 31.7764783, "lng": 35.2053783}, "12.922846 100.882729": {"MGRS": "47PQQ0423729369", "currency": "THB", "flag": "\ud83c\uddf9\ud83c\udded", "roadinfo": "left", "timezone_name": "Asia/Bangkok", "timezone_shortname": "+07", "continent": "Asia", "city": "Pattaya", "country": "Thailand", "confidence": 9, "lat": 12.9229862, "lng": 100.8825068}, "34.990185 33.9987": {"MGRS": "36SWD9109072367", "currency": "EUR", "flag": "\ud83c\udde8\ud83c\uddfe", "roadinfo": "left", "timezone_name": "Asia/Nicosia", "timezone_shortname": "EEST", "continent": "Asia", "city": "Ayia Napa", "country": "Cyprus", "confidence": 9, "lat": 34.9898018, "lng": 33.998089}, "52.289588 104.280606": {"MGRS": "48UVC5093093447", "currency": "RUB", "flag": "\ud83c\uddf7\ud83c\uddfa", "roadinfo": "right", "timezone_name": "Asia/Irkutsk", "timezone_shortname": "+08", "continent": "Asia", "city": "Irkutsk", "country": "Russia", "confidence": 9, "lat": 52.2891942, "lng": 104.2805729}, "48.707067 44.516975": {"MGRS": "38UMU6445395029", "currency": "RUB", "flag": "\ud83c\uddf7\ud83c\uddfa", "roadinfo": "right", "timezone_name": "Europe/Volgograd", "timezone_shortname": "+03", "continent": "Europe", "city": "Volgograd", "country": "Russia", "confidence": 9, "lat": 48.707285, "lng": 44.516838}, "35.015774 34.051907": {"MGRS": "36SWD9597875302", "currency": "EUR", "flag": "\ud83c\udde8\ud83c\uddfe", "roadinfo": "left", "timezone_name": "Asia/Nicosia", "timezone_shortname": "EEST", "continent": "Asia", "city": "Protaras", "country": "Cyprus", "confidence": 9, "lat": 35.0158167, "lng": 34.0519843}, "13.401897 103.879706": {"MGRS": "48PUV7877781868", "currency": "KHR", "flag": "\ud83c\uddf0\ud83c\udded", "roadinfo": "right", "timezone_name": "Asia/Bangkok", "timezone_shortname": "+07", "continent": "Asia", "city": "Siem Reap", "country": "Cambodia", "confidence": 9, "lat": 13.4020186, "lng": 103.8803748}, "52.518621 13.375133": {"MGRS": "33UUU8981519966", "currency": "EUR", "flag": "\ud83c\udde9\ud83c\uddea", "roadinfo": "right", "timezone_name": "Europe/Berlin", "timezone_shortname": "CEST", "continent": "Europe", "city": "Berlin", "country": "Germany", "confidence": 9, "lat": 52.5186537, "lng": 13.3761014}, "38.716174 -9.141589": {"MGRS": "29SMC8769585291", "currency": "EUR", "flag": "\ud83c\uddf5\ud83c\uddf9", "roadinfo": "right", "timezone_name": "Europe/Lisbon", "timezone_shortname": "WEST", "continent": "Europe", "city": "Lisbon", "country": "Portugal", "confidence": 9, "lat": 38.7161863, "lng": -9.1415352}, "55.951814 -3.207641": {"MGRS": "30UVH8703300728", "currency": "GBP", "flag": "\ud83c\uddec\ud83c\udde7", "roadinfo": "left", "timezone_name": "Europe/London", "timezone_shortname": "BST", "continent": "Europe", "city": "City of Edinburgh", "country": "United Kingdom", "confidence": 9, "lat": 55.951745, "lng": -3.2076532}, "47.22813 28.941904": {"MGRS": "35TPN4699432349", "currency": "MDL", "flag": "\ud83c\uddf2\ud83c\udde9", "roadinfo": "right", "timezone_name": "Europe/Chisinau", "timezone_shortname": "EEST", "continent": "Europe", "city": "H\u00eertopul Mare", "country": "Moldova", "confidence": 9, "lat": 47.2281754, "lng": 28.9417995}, "45.668731 -0.394181": {"MGRS": "30TYR0305460681", "currency": "EUR", "flag": "\ud83c\uddeb\ud83c\uddf7", "roadinfo": "right", "timezone_name": "Europe/Paris", "timezone_shortname": "CEST", "continent": "Europe", "city": "Merpins", "country": "France", "confidence": 9, "lat": 45.6699364, "lng": -0.3930934}, "53.550682 9.992895": {"MGRS": "32UNE6576033952", "currency": "EUR", "flag": "\ud83c\udde9\ud83c\uddea", "roadinfo": "right", "timezone_name": "Europe/Berlin", "timezone_shortname": "CEST", "continent": "Europe", "city": "Hamburg", "country": "Germany", "confidence": 9, "lat": 53.5503431, "lng": 9.9925609}, "41.843148 43.384047": {"MGRS": "38TLM6579933621", "currency": "GEL", "flag": "\ud83c\uddec\ud83c\uddea", "roadinfo": "right", "timezone_name": "Asia/Tbilisi", "timezone_shortname": "+04", "continent": "Asia", "city": "Borjomi", "country": "Georgia", "confidence": 9, "lat": 41.8431205, "lng": 43.3835518}, "52.438382 31.076597": {"MGRS": "36UUD6949011888", "currency": "BYN", "flag": "\ud83c\udde7\ud83c\uddfe", "roadinfo": "right", "timezone_name": "Europe/Minsk", "timezone_shortname": "+03", "continent": "Europe", "city": "\u0423\u043b\u0443\u043a\u043e\u0432\u0441\u043a\u0438\u0439 \u0441\u0435\u043b\u044c\u0441\u043a\u0438\u0439 \u0421\u043e\u0432\u0435\u0442", "country": "Belarus", "confidence": 9, "lat": 52.4415901, "lng": 31.079884}, "54.314192 48.403123": {"MGRS": "39UUA3102821608", "currency": "RUB", "flag": "\ud83c\uddf7\ud83c\uddfa", "roadinfo": "right", "timezone_name": "Europe/Ulyanovsk", "timezone_shortname": "+04", "continent": "Europe", "city": "Ulyanovsk", "country": "Russia", "confidence": 9, "lat": 54.314341, "lng": 48.4023486}, "41.693076 44.801552": {"MGRS": "38TMM8348315752", "currency": "GEL", "flag": "\ud83c\uddec\ud83c\uddea", "roadinfo": "right", "timezone_name": "Asia/Tbilisi", "timezone_shortname": "+04", "continent": "Asia", "city": "Tbilisi", "country": "Georgia", "confidence": 9, "lat": 41.6933785, "lng": 44.8015234}, "35.191593 25.715506": {"MGRS": "35SLU8305795047", "currency": "EUR", "flag": "\ud83c\uddec\ud83c\uddf7", "roadinfo": "right", "timezone_name": "Europe/Athens", "timezone_shortname": "EEST", "continent": "Europe", "city": "Municipality of Agios Nikolaos", "country": "Greece", "confidence": 10, "lat": 35.1916117, "lng": 25.7154991}, "59.421937 24.743349": {"MGRS": "35VLF7199389236", "currency": "EUR", "flag": "\ud83c\uddea\ud83c\uddea", "roadinfo": "right", "timezone_name": "Europe/Tallinn", "timezone_shortname": "EEST", "continent": "Europe", "city": "Tallinn", "country": "Estonia", "confidence": 9, "lat": 59.4222041, "lng": 24.7439996}, "60.451542 22.266694": {"MGRS": "34VEN6965502405", "currency": "EUR", "flag": "\ud83c\uddeb\ud83c\uddee", "roadinfo": "right", "timezone_name": "Europe/Helsinki", "timezone_shortname": "EEST", "continent": "Europe", "city": "Turku", "country": "Finland", "confidence": 9, "lat": 60.4518631, "lng": 22.2661561}, "34.687007 33.036272": {"MGRS": "36SWD0331138343", "currency": "EUR", "flag": "\ud83c\udde8\ud83c\uddfe", "roadinfo": "left", "timezone_name": "Asia/Nicosia", "timezone_shortname": "EEST", "continent": "Asia", "city": "Limassol", "country": "Cyprus", "confidence": 9, "lat": 34.6870892, "lng": 33.0361572}, "39.62547 19.924292": {"MGRS": "34SDJ0767986741", "currency": "EUR", "flag": "\ud83c\uddec\ud83c\uddf7", "roadinfo": "right", "timezone_name": "Europe/Athens", "timezone_shortname": "EEST", "continent": "Europe", "city": "Corfu", "country": "Greece", "confidence": 9, "lat": 39.6254628, "lng": 19.9243204}, "42.697833 23.314498": {"MGRS": "34TFN8957729859", "currency": "BGN", "flag": "\ud83c\udde7\ud83c\uddec", "roadinfo": "right", "timezone_name": "Europe/Sofia", "timezone_shortname": "EEST", "continent": "Europe", "city": "Sofia", "country": "Bulgaria", "confidence": 9, "lat": 42.6978474, "lng": 23.3145002}, "10.776264 106.694936": {"MGRS": "48PXS8529891740", "currency": "VND", "flag": "\ud83c\uddfb\ud83c\uddf3", "roadinfo": "right", "timezone_name": "Asia/Ho_Chi_Minh", "timezone_shortname": "+07", "continent": "Asia", "city": "Ho Chi Minh City", "country": "Vietnam", "confidence": 9, "lat": 10.7761438, "lng": 106.6946963}, "44.054374 12.571437": {"MGRS": "33TUJ0547480786", "currency": "EUR", "flag": "\ud83c\uddee\ud83c\uddf9", "roadinfo": "right", "timezone_name": "Europe/Rome", "timezone_shortname": "CEST", "continent": "Europe", "city": "Rimini", "country": "Italy", "confidence": 10, "lat": 44.0544394, "lng": 12.5715106}, "41.289615 13.250267": {"MGRS": "33TUF5349172385", "currency": "EUR", "flag": "\ud83c\uddee\ud83c\uddf9", "roadinfo": "right", "timezone_name": "Europe/Rome", "timezone_shortname": "CEST", "continent": "Europe", "city": "Terracina", "country": "Italy", "confidence": 9, "lat": 41.2896298, "lng": 13.2503069}, "54.989342 73.368212": {"MGRS": "43UCA9559394813", "currency": "RUB", "flag": "\ud83c\uddf7\ud83c\uddfa", "roadinfo": "right", "timezone_name": "Asia/Omsk", "timezone_shortname": "+06", "continent": "Asia", "city": "Omsk", "country": "Russia", "confidence": 9, "lat": 54.9892551, "lng": 73.3682109}, "51.768199 55.096955": {"MGRS": "40UCC6868536967", "currency": "RUB", "flag": "\ud83c\uddf7\ud83c\uddfa", "roadinfo": "right", "timezone_name": "Asia/Yekaterinburg", "timezone_shortname": "+05", "continent": "Europe", "city": "Orenburg", "country": "Russia", "confidence": 9, "lat": 51.7681738, "lng": 55.0969362}, "43.024616 44.681762": {"MGRS": "38TMN7414963593", "currency": "RUB", "flag": "\ud83c\uddf7\ud83c\uddfa", "roadinfo": "right", "timezone_name": "Europe/Moscow", "timezone_shortname": "MSK", "continent": "Europe", "city": "Vladikavkaz", "country": "Russia", "confidence": 10, "lat": 43.0245869, "lng": 44.6827168}, "51.834809 107.584538": {"MGRS": "48UXC7811445829", "currency": "RUB", "flag": "\ud83c\uddf7\ud83c\uddfa", "roadinfo": "right", "timezone_name": "Asia/Irkutsk", "timezone_shortname": "+08", "continent": "Asia", "city": "Ulan-Ude", "country": "Russia", "confidence": 9, "lat": 51.8348447, "lng": 107.5852172}, "37.073687 15.281349": {"MGRS": "33SWB2500703086", "currency": "EUR", "flag": "\ud83c\uddee\ud83c\uddf9", "roadinfo": "right", "timezone_name": "Europe/Rome", "timezone_shortname": "CEST", "continent": "Europe", "city": "Syracuse", "country": "Italy", "confidence": 9, "lat": 37.0737105, "lng": 15.2813282}, "47.252834 16.929416": {"MGRS": "33TXN4598935065", "currency": "HUF", "flag": "\ud83c\udded\ud83c\uddfa", "roadinfo": "right", "timezone_name": "Europe/Budapest", "timezone_shortname": "CEST", "continent": "Europe", "city": "S\u00e1rv\u00e1r", "country": "Hungary", "confidence": 9, "lat": 47.2528256, "lng": 16.9294136}, "50.846697 4.352535": {"MGRS": "31UES9521533650", "currency": "EUR", "flag": "\ud83c\udde7\ud83c\uddea", "roadinfo": "right", "timezone_name": "Europe/Brussels", "timezone_shortname": "CEST", "continent": "Europe", "city": "City of Brussels", "country": "Belgium", "confidence": 9, "lat": 50.8467143, "lng": 4.3525141}, "35.6817 139.753882": {"MGRS": "54SUE8694949598", "currency": "JPY", "flag": "\ud83c\uddef\ud83c\uddf5", "roadinfo": "left", "timezone_name": "Asia/Tokyo", "timezone_shortname": "JST", "continent": "Asia", "city": "Chiyoda", "country": "Japan", "confidence": 8, "lat": 35.6838097, "lng": 139.7506583}, "46.572124 11.675565": {"MGRS": "32TQS0502561095", "currency": "EUR", "flag": "\ud83c\uddee\ud83c\uddf9", "roadinfo": "right", "timezone_name": "Europe/Rome", "timezone_shortname": "CEST", "continent": "Europe", "city": "Urtij\u00ebi - St. Ulrich in Gr\u00f6den - Ortisei", "country": "Italy", "confidence": 9, "lat": 46.5721257, "lng": 11.6755658}, "58.248895 22.490186": {"MGRS": "34VEK8746057400", "currency": "EUR", "flag": "\ud83c\uddea\ud83c\uddea", "roadinfo": "right", "timezone_name": "Europe/Tallinn", "timezone_shortname": "EEST", "continent": "Europe", "city": "Kuressaare", "country": "Estonia", "confidence": 10, "lat": 58.249003, "lng": 22.4900766}, "48.306487 14.282953": {"MGRS": "33UVP4680550588", "currency": "EUR", "flag": "\ud83c\udde6\ud83c\uddf9", "roadinfo": "right", "timezone_name": "Europe/Vienna", "timezone_shortname": "CEST", "continent": "Europe", "city": "Linz", "country": "Austria", "confidence": 10, "lat": 48.3062562, "lng": 14.2826315}, "45.51408 13.593055": {"MGRS": "33TUL9010741022", "currency": "EUR", "flag": "\ud83c\uddf8\ud83c\uddee", "roadinfo": "right", "timezone_name": "Europe/Belgrade", "timezone_shortname": "CEST", "continent": "Europe", "city": "Portoro\u017e / Portorose", "country": "Slovenia", "confidence": 9, "lat": 45.5140749, "lng": 13.5930545}, "38.906168 1.419096": {"MGRS": "31SCD6296107516", "currency": "EUR", "flag": "\ud83c\uddea\ud83c\uddf8", "roadinfo": "right", "timezone_name": "Europe/Madrid", "timezone_shortname": "CEST", "continent": "Europe", "city": "Eivissa", "country": "Spain", "confidence": 9, "lat": 38.9058524, "lng": 1.4195481}, "47.386966 8.534139": {"MGRS": "32TMT6483748269", "currency": "CHF", "flag": "\ud83c\udde8\ud83c\udded", "roadinfo": "right", "timezone_name": "Europe/Zurich", "timezone_shortname": "CEST", "continent": "Europe", "city": "Zurich", "country": "Switzerland", "confidence": 9, "lat": 47.3869393, "lng": 8.5341199}, "47.809485 13.055009": {"MGRS": "33TUN5437696937", "currency": "EUR", "flag": "\ud83c\udde6\ud83c\uddf9", "roadinfo": "right", "timezone_name": "Europe/Vienna", "timezone_shortname": "CEST", "continent": "Europe", "city": "Salzburg", "country": "Austria", "confidence": 10, "lat": 47.8093103, "lng": 13.054945}, "29.554237 34.948444": {"MGRS": "36RXT8876870973", "currency": "ILS", "flag": "\ud83c\uddee\ud83c\uddf1", "roadinfo": "right", "timezone_name": "Asia/Jerusalem", "timezone_shortname": "IDT", "continent": "Asia", "city": "Eilat", "country": "Israel", "confidence": 9, "lat": 29.5542093, "lng": 34.9483634}, "40.177628 44.512546": {"MGRS": "38TMK5850847585", "currency": "AMD", "flag": "\ud83c\udde6\ud83c\uddf2", "roadinfo": "right", "timezone_name": "Asia/Yerevan", "timezone_shortname": "+04", "continent": "Asia", "city": "Yerevan", "country": "Armenia", "confidence": 9, "lat": 40.1776206, "lng": 44.5126624}, "36.606026 -4.541666": {"MGRS": "30SUF6211852276", "currency": "EUR", "flag": "\ud83c\uddea\ud83c\uddf8", "roadinfo": "right", "timezone_name": "Europe/Madrid", "timezone_shortname": "CEST", "continent": "Europe", "city": "Arroyo de la Miel", "country": "Spain", "confidence": 9, "lat": 36.6060351, "lng": -4.5416762}, "46.957765 142.729579": {"MGRS": "54TXT3154201909", "currency": "RUB", "flag": "\ud83c\uddf7\ud83c\uddfa", "roadinfo": "right", "timezone_name": "Asia/Sakhalin", "timezone_shortname": "+11", "continent": "Asia", "city": "Yuzhno-Sakhalinsk", "country": "Russia", "confidence": 9, "lat": 46.9576607, "lng": 142.7288926}, "53.902284 27.561831": {"MGRS": "35UNV3691772790", "currency": "BYN", "flag": "\ud83c\udde7\ud83c\uddfe", "roadinfo": "right", "timezone_name": "Europe/Minsk", "timezone_shortname": "+03", "continent": "Europe", "city": "Minsk", "country": "Belarus", "confidence": 9, "lat": 53.9022366, "lng": 27.5618865}, "22.407942 -79.965664": {"MGRS": "17QPE0644878357", "currency": "CUC", "flag": "\ud83c\udde8\ud83c\uddfa", "roadinfo": "right", "timezone_name": "America/Havana", "timezone_shortname": "CDT", "continent": "North America", "city": "Santa Clara", "country": "Cuba", "confidence": 9, "lat": 22.4080275, "lng": -79.9657895}, "7.895925 98.302489": {"MGRS": "47NMJ2309672842", "currency": "THB", "flag": "\ud83c\uddf9\ud83c\udded", "roadinfo": "left", "timezone_name": "Asia/Bangkok", "timezone_shortname": "+07", "continent": "Asia", "city": "Pa Tong", "country": "Thailand", "confidence": 9, "lat": 7.8957968, "lng": 98.302337}, "51.475488 11.983526": {"MGRS": "32UQC0718306924", "currency": "EUR", "flag": "\ud83c\udde9\ud83c\uddea", "roadinfo": "right", "timezone_name": "Europe/Berlin", "timezone_shortname": "CEST", "continent": "Europe", "city": "Halle (Saale)", "country": "Germany", "confidence": 9, "lat": 51.4754884, "lng": 11.9835032}, "28.632846 77.219721": {"MGRS": "43RGM1698869318", "currency": "INR", "flag": "\ud83c\uddee\ud83c\uddf3", "roadinfo": "left", "timezone_name": "Asia/Kolkata", "timezone_shortname": "IST", "continent": "Asia", "city": "New Delhi", "country": "India", "confidence": 9, "lat": 28.6327972, "lng": 77.2197106}, "37.570705 126.976937": {"MGRS": "52SCG2135160345", "currency": "KRW", "flag": "\ud83c\uddf0\ud83c\uddf7", "roadinfo": "right", "timezone_name": "Asia/Seoul", "timezone_shortname": "KST", "continent": "Asia", "city": "Seoul", "country": "South Korea", "confidence": 9, "lat": 37.572834, "lng": 126.9770093}, "36.512975 -4.876487": {"MGRS": "30SUF3198442464", "currency": "EUR", "flag": "\ud83c\uddea\ud83c\uddf8", "roadinfo": "right", "timezone_name": "Europe/Madrid", "timezone_shortname": "CEST", "continent": "Europe", "city": "Marbella", "country": "Spain", "confidence": 9, "lat": 36.5127942, "lng": -4.8763209}, "55.184217 30.202869": {"MGRS": "36UUG2192818934", "currency": "BYN", "flag": "\ud83c\udde7\ud83c\uddfe", "roadinfo": "right", "timezone_name": "Europe/Minsk", "timezone_shortname": "+03", "continent": "Europe", "city": "Vitsebsk", "country": "Belarus", "confidence": 9, "lat": 55.1848808, "lng": 30.2030049}, "22.31548 114.045258": {"MGRS": "50QJK9558070715", "currency": "HKD", "flag": "\ud83c\udded\ud83c\uddf0", "roadinfo": "left", "timezone_name": "Asia/Hong_Kong", "timezone_shortname": "HKT", "continent": "Asia", "city": "Tsuen Wan District", "country": "China", "confidence": 9, "lat": 22.3153578, "lng": 114.0451497}, "40.714599 -74.002791": {"MGRS": "18TWL8420407535", "currency": "USD", "flag": "\ud83c\uddfa\ud83c\uddf8", "roadinfo": "right", "timezone_name": "America/New_York", "timezone_shortname": "EDT", "continent": "North America", "city": "New York", "country": "United States", "confidence": 9, "lat": 40.7144376, "lng": -74.0030743}, "47.492647 19.051399": {"MGRS": "34TCT5324761731", "currency": "HUF", "flag": "\ud83c\udded\ud83c\uddfa", "roadinfo": "right", "timezone_name": "Europe/Budapest", "timezone_shortname": "CEST", "continent": "Europe", "city": "Budapest", "country": "Hungary", "confidence": 9, "lat": 47.4924607, "lng": 19.0516898}, "43.779787 11.265817": {"MGRS": "32TPP8229349932", "currency": "EUR", "flag": "\ud83c\uddee\ud83c\uddf9", "roadinfo": "right", "timezone_name": "Europe/Rome", "timezone_shortname": "CEST", "continent": "Europe", "city": "Florence", "country": "Italy", "confidence": 10, "lat": 43.7799979, "lng": 11.2653384}, "32.085443 34.782175": {"MGRS": "36SXA6819051292", "currency": "ILS", "flag": "\ud83c\uddee\ud83c\uddf1", "roadinfo": "right", "timezone_name": "Asia/Jerusalem", "timezone_shortname": "IDT", "continent": "Asia", "city": "Tel Aviv-Yafo", "country": "Israel", "confidence": 10, "lat": 32.085414, "lng": 34.782167}, "39.03035 16.645055": {"MGRS": "33SXD4094019523", "currency": "EUR", "flag": "\ud83c\uddee\ud83c\uddf9", "roadinfo": "right", "timezone_name": "Europe/Rome", "timezone_shortname": "CEST", "continent": "Europe", "city": "Magisano", "country": "Italy", "confidence": 7, "lat": 39.01339, "lng": 16.627904}, "44.302054 38.753249": {"MGRS": "37TDK8028505466", "currency": "RUB", "flag": "\ud83c\uddf7\ud83c\uddfa", "roadinfo": "right", "timezone_name": "Europe/Moscow", "timezone_shortname": "MSK", "continent": "Europe", "city": "Lermontovo", "country": "Russia", "confidence": 10, "lat": 44.3021833, "lng": 38.7528398}, "21.033995 105.842112": {"MGRS": "48QWJ8758426124", "currency": "VND", "flag": "\ud83c\uddfb\ud83c\uddf3", "roadinfo": "right", "timezone_name": "Asia/Bangkok", "timezone_shortname": "+07", "continent": "Asia", "city": "Hanoi", "country": "Vietnam", "confidence": 9, "lat": 21.0338407, "lng": 105.8429072}, "50.230917 12.867441": {"MGRS": "33UUR4790666479", "currency": "CZK", "flag": "\ud83c\udde8\ud83c\uddff", "roadinfo": "right", "timezone_name": "Europe/Prague", "timezone_shortname": "CEST", "continent": "Europe", "city": "Carlsbad", "country": "Czechia", "confidence": 9, "lat": 50.2308997, "lng": 12.8674517}, "35.322933 25.392328": {"MGRS": "35SLV5392610036", "currency": "EUR", "flag": "\ud83c\uddec\ud83c\uddf7", "roadinfo": "right", "timezone_name": "Europe/Athens", "timezone_shortname": "EEST", "continent": "Europe", "city": "Municipality of Limin Chersonisou", "country": "Greece", "confidence": 9, "lat": 35.3228965, "lng": 25.3929529}, "54.944218 20.156066": {"MGRS": "34UDF4594288915", "currency": "RUB", "flag": "\ud83c\uddf7\ud83c\uddfa", "roadinfo": "right", "timezone_name": "Europe/Kaliningrad", "timezone_shortname": "EET", "continent": "Europe", "city": "Svetlogorsk", "country": "Russia", "confidence": 9, "lat": 54.9442704, "lng": 20.1561023}, "-8.729898 115.174512": {"MGRS": "50LKR9917934524", "currency": "IDR", "flag": "\ud83c\uddee\ud83c\udde9", "roadinfo": "left", "timezone_name": "Asia/Makassar", "timezone_shortname": "WITA", "continent": "Asia", "city": "Kuta", "country": "Indonesia", "confidence": 9, "lat": -8.7298945, "lng": 115.1745643}, "37.975527 23.734855": {"MGRS": "34SGH4021206629", "currency": "EUR", "flag": "\ud83c\uddec\ud83c\uddf7", "roadinfo": "right", "timezone_name": "Europe/Athens", "timezone_shortname": "EEST", "continent": "Europe", "city": "Athens", "country": "Greece", "confidence": 9, "lat": 37.9755289, "lng": 23.7348301}, "25.725294 -100.253387": {"MGRS": "14RLP7427145853", "currency": "MXN", "flag": "\ud83c\uddf2\ud83c\uddfd", "roadinfo": "right", "timezone_name": "America/Monterrey", "timezone_shortname": "CST", "continent": "North America", "city": "San Nicol\u00e1s de los Garza", "country": "Mexico", "confidence": 9, "lat": 25.725242, "lng": -100.2533414}, "31.230863 121.470462": {"MGRS": "51RUQ5428756264", "currency": "CNY", "flag": "\ud83c\udde8\ud83c\uddf3", "roadinfo": "right", "timezone_name": "Asia/Shanghai", "timezone_shortname": "CST", "continent": "Asia", "city": "Shanghai", "country": "China", "confidence": 9, "lat": 31.2314784, "lng": 121.470047}, "54.280737 28.227662": {"MGRS": "35UNA7992815451", "currency": "BYN", "flag": "\ud83c\udde7\ud83c\uddfe", "roadinfo": "right", "timezone_name": "Europe/Minsk", "timezone_shortname": "+03", "continent": "Europe", "city": "\u0428\u0432\u0430\u0431\u0441\u043a\u0438\u0439 \u0441\u0435\u043b\u044c\u0441\u043a\u0438\u0439 \u0421\u043e\u0432\u0435\u0442", "country": "Belarus", "confidence": 8, "lat": 54.2807276, "lng": 28.2276616}, "47.553125 7.606835": {"MGRS": "32TLT9518067583", "currency": "CHF", "flag": "\ud83c\udde8\ud83c\udded", "roadinfo": "right", "timezone_name": "Europe/Zurich", "timezone_shortname": "CEST", "continent": "Europe", "city": "Basel", "country": "Switzerland", "confidence": 10, "lat": 47.5532098, "lng": 7.6068049}, "56.94684 24.106075": {"MGRS": "35VLD2400015216", "currency": "EUR", "flag": "\ud83c\uddf1\ud83c\uddfb", "roadinfo": "right", "timezone_name": "Europe/Riga", "timezone_shortname": "EEST", "continent": "Europe", "city": "Riga", "country": "Latvia", "confidence": 10, "lat": 56.9470334, "lng": 24.1064043}, "46.798115 9.827973": {"MGRS": "32TNS6319683104", "currency": "CHF", "flag": "\ud83c\udde8\ud83c\udded", "roadinfo": "right", "timezone_name": "Europe/Zurich", "timezone_shortname": "CEST", "continent": "Europe", "city": "Davos", "country": "Switzerland", "confidence": 10, "lat": 46.7984873, "lng": 9.8281524}, "40.372967 49.853139": {"MGRS": "39TVE0264569754", "currency": "AZN", "flag": "\ud83c\udde6\ud83c\uddff", "roadinfo": "right", "timezone_name": "Asia/Baku", "timezone_shortname": "+04", "continent": "Asia", "city": "Baku", "country": "Azerbaijan", "confidence": 9, "lat": 40.3726848, "lng": 49.8532323}, "43.340702 42.580989": {"MGRS": "38TLN1933695734", "currency": "RUB", "flag": "\ud83c\uddf7\ud83c\uddfa", "roadinfo": "right", "timezone_name": "Europe/Moscow", "timezone_shortname": "MSK", "continent": "Europe", "city": "Elbrus District", "country": "Russia", "confidence": 4, "lat": 43.292763, "lng": 42.7729276}, "38.133089 13.347276": {"MGRS": "33SUC5513521898", "currency": "EUR", "flag": "\ud83c\uddee\ud83c\uddf9", "roadinfo": "right", "timezone_name": "Europe/Rome", "timezone_shortname": "CEST", "continent": "Europe", "city": "Palermo", "country": "Italy", "confidence": 10, "lat": 38.13333, "lng": 13.3470747}, "40.790264 14.370637": {"MGRS": "33TVF4690515670", "currency": "EUR", "flag": "\ud83c\uddee\ud83c\uddf9", "roadinfo": "right", "timezone_name": "Europe/Rome", "timezone_shortname": "CEST", "continent": "Europe", "city": "Torre del Greco", "country": "Italy", "confidence": 9, "lat": 40.7903073, "lng": 14.3706721}, "39.5676 2.664753": {"MGRS": "31SDD7114679853", "currency": "EUR", "flag": "\ud83c\uddea\ud83c\uddf8", "roadinfo": "right", "timezone_name": "Europe/Madrid", "timezone_shortname": "CEST", "continent": "Europe", "city": "Palma", "country": "Spain", "confidence": 9, "lat": 39.5678975, "lng": 2.6640855}, "60.166892 24.943673": {"MGRS": "35VLG8589771780", "currency": "EUR", "flag": "\ud83c\uddeb\ud83c\uddee", "roadinfo": "right", "timezone_name": "Europe/Helsinki", "timezone_shortname": "EEST", "continent": "Europe", "city": "Helsinki", "country": "Finland", "confidence": 9, "lat": 60.1669507, "lng": 24.9437435}, "57.142872 33.115441": {"MGRS": "36VWJ0693233325", "currency": "RUB", "flag": "\ud83c\uddf7\ud83c\uddfa", "roadinfo": "right", "timezone_name": "Europe/Moscow", "timezone_shortname": "MSK", "continent": "Europe", "city": "Ostashkov", "country": "Russia", "confidence": 10, "lat": 57.1431351, "lng": 33.1145514}, "61.350179 169.782981": {"MGRS": "59VMH0266961141", "currency": "RUB", "flag": "\ud83c\uddf7\ud83c\uddfa", "roadinfo": "right", "timezone_name": "Asia/Kamchatka", "timezone_shortname": "+12", "continent": "Asia", "city": "Olyutorsky District", "country": "Russia", "confidence": 1, "lat": 60.9732286, "lng": 169.2018011}, "-7.093088 -34.850582": {"MGRS": "25MBN9566515551", "currency": "BRL", "flag": "\ud83c\udde7\ud83c\uddf7", "roadinfo": "right", "timezone_name": "America/Fortaleza", "timezone_shortname": "-03", "continent": "South America", "city": "Cabedelo", "country": "Brazil", "confidence": 9, "lat": -7.0931021, "lng": -34.8500592}, "50.110389 8.6821": {"MGRS": "32UMA7727250956", "currency": "EUR", "flag": "\ud83c\udde9\ud83c\uddea", "roadinfo": "right", "timezone_name": "Europe/Berlin", "timezone_shortname": "CEST", "continent": "Europe", "city": "Frankfurt", "country": "Germany", "confidence": 9, "lat": 50.1104212, "lng": 8.6821398}, "53.757547 87.136044": {"MGRS": "45UWV0896856510", "currency": "RUB", "flag": "\ud83c\uddf7\ud83c\uddfa", "roadinfo": "right", "timezone_name": "Asia/Novokuznetsk", "timezone_shortname": "+07", "continent": "Asia", "city": "Novokuznetsk", "country": "Russia", "confidence": 9, "lat": 53.7571452, "lng": 87.136029}, "55.531127 38.874756": {"MGRS": "37UDB9194953919", "currency": "RUB", "flag": "\ud83c\uddf7\ud83c\uddfa", "roadinfo": "right", "timezone_name": "Europe/Moscow", "timezone_shortname": "MSK", "continent": "Europe", "city": "\u041e\u0440\u0435\u0445\u043e\u0432\u043e-\u0417\u0443\u0435\u0432\u0441\u043a\u0438\u0439 \u0433\u043e\u0440\u043e\u0434\u0441\u043a\u043e\u0439 \u043e\u043a\u0440\u0443\u0433", "country": "Russia", "confidence": 7, "lat": 55.5312638, "lng": 38.8724567}, "46.347614 48.030169": {"MGRS": "39TTM7149236961", "currency": "RUB", "flag": "\ud83c\uddf7\ud83c\uddfa", "roadinfo": "right", "timezone_name": "Europe/Astrakhan", "timezone_shortname": "+04", "continent": "Europe", "city": "Astrakhan", "country": "Russia", "confidence": 9, "lat": 46.34765, "lng": 48.030218}, "57.819274 28.332451": {"MGRS": "35VNE7917209372", "currency": "RUB", "flag": "\ud83c\uddf7\ud83c\uddfa", "roadinfo": "right", "timezone_name": "Europe/Moscow", "timezone_shortname": "MSK", "continent": "Europe", "city": "Pskov", "country": "Russia", "confidence": 9, "lat": 57.819308, "lng": 28.332771}, "58.522852 31.269807": {"MGRS": "36VUK9913988252", "currency": "RUB", "flag": "\ud83c\uddf7\ud83c\uddfa", "roadinfo": "right", "timezone_name": "Europe/Moscow", "timezone_shortname": "MSK", "continent": "Europe", "city": "Veliky Novgorod", "country": "Russia", "confidence": 10, "lat": 58.5231167, "lng": 31.2682055}, "42.983548 47.504035": {"MGRS": "38TQN0411462039", "currency": "RUB", "flag": "\ud83c\uddf7\ud83c\uddfa", "roadinfo": "right", "timezone_name": "Europe/Moscow", "timezone_shortname": "MSK", "continent": "Europe", "city": "Makhachkala", "country": "Russia", "confidence": 10, "lat": 42.9836425, "lng": 47.5034945}, "53.346785 83.776856": {"MGRS": "44UPE8485214452", "currency": "RUB", "flag": "\ud83c\uddf7\ud83c\uddfa", "roadinfo": "right", "timezone_name": "Asia/Barnaul", "timezone_shortname": "+07", "continent": "Asia", "city": "Barnaul", "country": "Russia", "confidence": 9, "lat": 53.3468635, "lng": 83.7770693}, "41.008122 28.975582": {"MGRS": "35TPF6613341539", "currency": "TRY", "flag": "\ud83c\uddf9\ud83c\uddf7", "roadinfo": "right", "timezone_name": "Europe/Istanbul", "timezone_shortname": "+03", "continent": "Europe", "city": "Fatih", "country": "Turkey", "confidence": 9, "lat": 41.0081347, "lng": 28.9755809}, "43.710546 10.398943": {"MGRS": "32TPP1270540687", "currency": "EUR", "flag": "\ud83c\uddee\ud83c\uddf9", "roadinfo": "right", "timezone_name": "Europe/Rome", "timezone_shortname": "CEST", "continent": "Europe", "city": "Pisa", "country": "Italy", "confidence": 9, "lat": 43.7106572, "lng": 10.3989753}, "51.533557 46.034257": {"MGRS": "38UNC7174509684", "currency": "RUB", "flag": "\ud83c\uddf7\ud83c\uddfa", "roadinfo": "right", "timezone_name": "Europe/Saratov", "timezone_shortname": "+04", "continent": "Europe", "city": "Saratov", "country": "Russia", "confidence": 9, "lat": 51.5337048, "lng": 46.0343882}, "54.689383 25.270894": {"MGRS": "35ULA8854661579", "currency": "EUR", "flag": "\ud83c\uddf1\ud83c\uddf9", "roadinfo": "right", "timezone_name": "Europe/Vilnius", "timezone_shortname": "EEST", "continent": "Europe", "city": "Vilnius", "country": "Lithuania", "confidence": 9, "lat": 54.6892029, "lng": 25.2709271}, "1.292703 103.846954": {"MGRS": "48NUG7166042906", "currency": "SGD", "flag": "\ud83c\uddf8\ud83c\uddec", "roadinfo": "left", "timezone_name": "Asia/Singapore", "timezone_shortname": "+08", "continent": "Asia", "city": "Singapore", "country": "Singapore", "confidence": 9, "lat": 1.2926549, "lng": 103.8464358}, "45.438095 12.319029": {"MGRS": "33TTL9030135106", "currency": "EUR", "flag": "\ud83c\uddee\ud83c\uddf9", "roadinfo": "right", "timezone_name": "Europe/Rome", "timezone_shortname": "CEST", "continent": "Europe", "city": "Mestre", "country": "Italy", "confidence": 9, "lat": 45.438007, "lng": 12.318851}, "41.651102 41.636267": {"MGRS": "37TGG1954514412", "currency": "GEL", "flag": "\ud83c\uddec\ud83c\uddea", "roadinfo": "right", "timezone_name": "Asia/Tbilisi", "timezone_shortname": "+04", "continent": "Asia", "city": "Batumi", "country": "Georgia", "confidence": 9, "lat": 41.6512369, "lng": 41.6364889}, "53.340258 -6.252831": {"MGRS": "29UPV8285713597", "currency": "EUR", "flag": "\ud83c\uddee\ud83c\uddea", "roadinfo": "left", "timezone_name": "Europe/Dublin", "timezone_shortname": "IST", "continent": "Europe", "city": "Dublin", "country": "Ireland", "confidence": 9, "lat": 53.3398814, "lng": -6.2533478}, "51.996077 84.983968": {"MGRS": "45UUT6161062473", "currency": "RUB", "flag": "\ud83c\uddf7\ud83c\uddfa", "roadinfo": "right", "timezone_name": "Asia/Barnaul", "timezone_shortname": "+07", "continent": "Asia", "city": "Belokurikha", "country": "Russia", "confidence": 10, "lat": 51.9956583, "lng": 84.9842404}, "52.23209 21.007139": {"MGRS": "34UEC0045886828", "currency": "PLN", "flag": "\ud83c\uddf5\ud83c\uddf1", "roadinfo": "right", "timezone_name": "Europe/Warsaw", "timezone_shortname": "CEST", "continent": "Europe", "city": "Warsaw", "country": "Poland", "confidence": 10, "lat": 52.2318717, "lng": 21.0067064}, "39.464109 -0.375711": {"MGRS": "30SYJ2576371574", "currency": "EUR", "flag": "\ud83c\uddea\ud83c\uddf8", "roadinfo": "right", "timezone_name": "Europe/Madrid", "timezone_shortname": "CEST", "continent": "Europe", "city": "Valencia", "country": "Spain", "confidence": 9, "lat": 39.4641568, "lng": -0.3757317}, "43.814825 7.773778": {"MGRS": "32TMP0138852022", "currency": "EUR", "flag": "\ud83c\uddee\ud83c\uddf9", "roadinfo": "right", "timezone_name": "Europe/Rome", "timezone_shortname": "CEST", "continent": "Europe", "city": "Sanremo", "country": "Italy", "confidence": 9, "lat": 43.814697, "lng": 7.773851}, "39.527228 2.539385": {"MGRS": "31SDD6041275386", "currency": "EUR", "flag": "\ud83c\uddea\ud83c\uddf8", "roadinfo": "right", "timezone_name": "Europe/Madrid", "timezone_shortname": "CEST", "continent": "Europe", "city": "Calvi\u00e0", "country": "Spain", "confidence": 9, "lat": 39.5272148, "lng": 2.5393931}, "46.790822 17.185221": {"MGRS": "33TXM6678184198", "currency": "HUF", "flag": "\ud83c\udded\ud83c\uddfa", "roadinfo": "right", "timezone_name": "Europe/Budapest", "timezone_shortname": "CEST", "continent": "Europe", "city": "H\u00e9v\u00edz", "country": "Hungary", "confidence": 9, "lat": 46.7904666, "lng": 17.1852621}, "43.554127 7.021565": {"MGRS": "32TLP4017824282", "currency": "EUR", "flag": "\ud83c\uddeb\ud83c\uddf7", "roadinfo": "right", "timezone_name": "Europe/Paris", "timezone_shortname": "CEST", "continent": "Europe", "city": "Cannes", "country": "France", "confidence": 10, "lat": 43.554377, "lng": 7.021342}, "43.303068 5.378483": {"MGRS": "31TFH9290597223", "currency": "EUR", "flag": "\ud83c\uddeb\ud83c\uddf7", "roadinfo": "right", "timezone_name": "Europe/Paris", "timezone_shortname": "CEST", "continent": "Europe", "city": "3e Arrondissement", "country": "France", "confidence": 10, "lat": 43.303122, "lng": 5.378374}, "48.00214 16.230904": {"MGRS": "33UWP9180217272", "currency": "EUR", "flag": "\ud83c\udde6\ud83c\uddf9", "roadinfo": "right", "timezone_name": "Europe/Vienna", "timezone_shortname": "CEST", "continent": "Europe", "city": "Gemeinde Baden", "country": "Austria", "confidence": 10, "lat": 48.0021553, "lng": 16.2307331}, "41.078385 1.140878": {"MGRS": "31TCF4382749125", "currency": "EUR", "flag": "\ud83c\uddea\ud83c\uddf8", "roadinfo": "right", "timezone_name": "Europe/Madrid", "timezone_shortname": "CEST", "continent": "Europe", "city": "Salou", "country": "Spain", "confidence": 9, "lat": 41.0783973, "lng": 1.1408853}, "25.805018 55.972714": {"MGRS": "40RCP9701654494", "currency": "AED", "flag": "\ud83c\udde6\ud83c\uddea", "roadinfo": "right", "timezone_name": "Asia/Dubai", "timezone_shortname": "+04", "continent": "Asia", "city": "Ras Al Khaimah", "country": "United Arab Emirates", "confidence": 9, "lat": 25.8050275, "lng": 55.9726841}, "48.320515 40.268923": {"MGRS": "37UEP9406752703", "currency": "RUB", "flag": "\ud83c\uddf7\ud83c\uddfa", "roadinfo": "right", "timezone_name": "Europe/Moscow", "timezone_shortname": "MSK", "continent": "Europe", "city": "Kamensk-Shakhtinsky", "country": "Russia", "confidence": 9, "lat": 48.3205213, "lng": 40.2689243}, "36.714834 -4.449463": {"MGRS": "30SUF7055764205", "currency": "EUR", "flag": "\ud83c\uddea\ud83c\uddf8", "roadinfo": "right", "timezone_name": "Europe/Madrid", "timezone_shortname": "CEST", "continent": "Europe", "city": "M\u00e1laga", "country": "Spain", "confidence": 9, "lat": 36.7147278, "lng": -4.4493551}, "54.513845 36.261215": {"MGRS": "37UCA2271544144", "currency": "RUB", "flag": "\ud83c\uddf7\ud83c\uddfa", "roadinfo": "right", "timezone_name": "Europe/Moscow", "timezone_shortname": "MSK", "continent": "Europe", "city": "Kaluga", "country": "Russia", "confidence": 9, "lat": 54.5138353, "lng": 36.2612393}}